{
"auth": [
{
	"id": "1",
	"key": "da39a3ee5e6b4b0d3255bfef95601890afd80709",
	"date_created": "2017-02-02 23:26:24"
}
, {
	"id": "3",
	"key": "a1828bda5e8e36d885108a47b65dbaa583065ea6",
	"date_created": "2017-02-28 10:47:50"
}
],
"restaurants": [
{
	"id": "1",
	"name": "Crêperie Canaele",
	"city": "maule",
	"postal_code": "78580",
	"latitude": "",
	"longitude": "",
	"address": "18 Boulevard Paul Barre",
	"description": "Le restaurant vous accueille dans un cadre chaleureux où plusieurs petites salles vous permettent de passer un agréable moment tout en dégustant la cuisine au goût du jour d'Hervé Klein.\r\nSituées sur plusieurs niveaux, les salles peuvent accueillir jusqu'à 15 couverts",
	"image": "galette_complete_3.jpg",
	"date_register": "2017-01-06 01:30:50"
}
, {
	"id": "78",
	"name": "O'Tacos",
	"city": "Paris",
	"postal_code": "75020",
	"latitude": "",
	"longitude": "",
	"address": "91 Rue des Vignoles",
	"description": "Le restaurant vous accueille dans un cadre chaleureux où plusieurs petites salles vous permettent de passer un agréable moment tout en dégustant la cuisine au goût du jour d'Hervé Klein.\r\nSituées sur plusieurs niveaux, les salles peuvent accueillir jusqu'à 15 couverts",
	"image": "otacos.jpg",
	"date_register": "2017-01-10 10:36:44"
}
, {
	"id": "79",
	"name": "Agapé",
	"city": "Paris",
	"postal_code": "75017",
	"latitude": "",
	"longitude": "",
	"address": "51 rue Jouffroy-d'Abbans",
	"description": "Agapè... En Grèce ancienne, ce mot désignait l'amour inconditionnel de l'autre. Un nom qui augure des moments exclusifs, dans un décor chic et tendance, parfaitement adapté. La maison, hissée au rang de valeur sûre, compte une clientèle fidèle et conquise... Le fruit d'un mariage réussi entre salle et cuisine. L'accueil et le service se révèlent très professionnels, avec des conseils avisés sur le choix des mets et leur alliance avec les vins (plus de 600 références). La carte elle-même, assez courte, fait profession de transparence en mentionnant la provenance des produits, triés sur le volet. Il ne reste alors qu'à se laisser bercer, en toute confiance, par une jolie romance : celle de la finesse des saveurs, de la justesse des assaisonnements, de la précision des cuissons... le tout porté au point subtil où l'harmonie rencontre la surprise. L'arme de séduction de l'Agapé !",
	"image": "agape.jpg",
	"date_register": "2017-01-13 00:16:52"
}
, {
	"id": "80",
	"name": "Le Vivarais",
	"city": "Lyon",
	"postal_code": "69002",
	"latitude": "",
	"longitude": "",
	"address": "1 place Gailleton",
	"description": "Avant 1789, le pays de Vivarais couvrait l'actuelle Ardèche, au sud de Lyon ; plus de deux cents ans ont passé, mais ce terroir est toujours vivant ! Ici, le patron et sa fille cuisinent à quatre mains, proposant pâté en croûte maison, fond d'artichaut des mères Lyonnaises au foie gras et quenelle sauce Nantua... Miam !",
	"image": "levivarais.jpg",
	"date_register": "2017-01-13 00:19:34"
}
, {
	"id": "81",
	"name": "L'Oiseau des Vignes",
	"city": "Beaune",
	"postal_code": "21200",
	"latitude": "",
	"longitude": "",
	"address": "31 Rue Jean Francois Maufoux",
	"description": "La griffe \"Loiseau\" (sous la houlette de la maison mère de Saulieu), une belle carte des vins - avec un choix rare de 70 vins au verre -, un lieu au cachet sûr (poutres, pierres) et surtout des assiettes pleines de caractère : une multitude d'atouts pour cette bonne table au coeur de la gastronomie bourguignonne !",
	"image": "Loiseudesvignes.jpg",
	"date_register": "2017-01-13 00:21:51"
}
, {
	"id": "82",
	"name": "France",
	"city": "Montmarault",
	"postal_code": "3390",
	"latitude": "",
	"longitude": "",
	"address": "1 rue Marx Dormoy",
	"description": "Le restaurant vous accueille dans un cadre chaleureux où plusieurs petites salles vous permettent de passer un agréable moment tout en dégustant la cuisine au goût du jour d'Hervé Klein.\r\nSituées sur plusieurs niveaux, les salles peuvent accueillir jusqu'à 15 couverts",
	"image": "france.jpg",
	"date_register": "2017-01-13 00:24:00"
}
, {
	"id": "83",
	"name": "L'Orangerie du Château",
	"city": "Blois",
	"postal_code": "41000",
	"latitude": "",
	"longitude": "",
	"address": "1 Avenue du Docteur Jean Laigret",
	"description": "Dans une dépendance du château (15e s.), avec une belle terrasse ouvrant sur le monument... L'esprit de la Renaissance n'est sans doute pas étranger à la cuisine, à la fois fine, légère et soignée.",
	"image": "blois.jpg",
	"date_register": "2017-01-13 00:26:24"
}
, {
	"id": "84",
	"name": "L'Assiette Champenoise",
	"city": "Tinqueux",
	"postal_code": "51430",
	"latitude": "",
	"longitude": "",
	"address": "40 av. Paul Vaillant-Couturier",
	"description": "À quoi reconnaît-on un grand cuisinier ? Au caractère de ses recettes, à sa capacité à apprivoiser même la simplicité, et bien sûr à révéler les saveurs... Ces qualités, Arnaud Lallement les possède toutes. Sans artifice, ses assiettes, rehaussées notamment de sauces magnifiques, réservent des émotions rares ! Le tout dans un cadre chic et moderne des plus agréables.",
	"image": "Champenoise.jpg",
	"date_register": "2017-01-13 00:42:00"
}
, {
	"id": "85",
	"name": "Carré des Feuillants",
	"city": "Paris",
	"postal_code": "75001",
	"latitude": "",
	"longitude": "",
	"address": "14 rue de Castiglione",
	"description": "Il est rare qu'un restaurant marie si parfaitement ambiance et style culinaire. Indéniablement, le Carré des Feuillants réussit cette osmose. Point d'exubérance ou d'élans démonstratifs, tout dans la mesure et la maîtrise : c'est la première impression qui se dégage de cet ancien couvent (bâti sous Henri IV). Conçu par l'artiste plasticien Alberto Bali, ami d'Alain Dutournier - pour qui il a également signé les décors de ses Pinxo -, le décor n'est que lignes épurées, presque minimalistes, et matériaux naturels, dans une veine contemporaine. Un cadre baigné de sérénité, pour un service impeccable et une cuisine à la hauteur. Marquée par la générosité et les racines landaises du chef, elle fait preuve de caractère et d'inventivité. Composées à la manière d'un triptyque - \"le basique, son complice végétal et le révélateur\" -, les assiettes ont l'art de valoriser l'authenticité du produit tout en sublimant le \"futile\". Quant à la cave, elle recèle de vrais trésors.",
	"image": "Feuillants.jpg",
	"date_register": "2017-01-13 00:49:03"
}
, {
	"id": "86",
	"name": "Le Montaigu",
	"city": "Missillac",
	"postal_code": "44780",
	"latitude": "",
	"longitude": "",
	"address": "Domaine de la Bretesche",
	"description": "Arrivé en mars 2015, Thierry Karakachian met en valeur son expérience dans de belles tables de la côte d'Azur - notamment Joël Robuchon et Yoshi à Monaco. Sa cuisine, parsemée de notes asiatiques, met joliment en valeur les nombreux produits du terroir breton. Un havre de gourmandise dans le magnifique domaine de la Bretesche !",
	"image": "Montaigu.jpg",
	"date_register": "2017-01-13 00:58:34"
}
, {
	"id": "87",
	"name": "L'Esprit de la Violette",
	"city": "Aix-en-Provence",
	"postal_code": "13100",
	"latitude": "",
	"longitude": "",
	"address": "10 Avenue de la Violette",
	"description": "Sur les hauteurs d'Aix, l'ancien Clos de la Violette a fait peau neuve ! Cette grande villa bourgeoise, dont le jardin est planté d'arbres séculaires, est désormais le \"fief\" du chef Marc de Passorio : il décline ici une cuisine moderne et colorée, créative en diable, qui nous mène de belle surprise en belle surprise...",
	"image": "Violette.jpg",
	"date_register": "2017-01-13 01:01:21"
}
, {
	"id": "88",
	"name": "Le Gindreau",
	"city": "Saint-Médard",
	"postal_code": "46150",
	"latitude": "",
	"longitude": "",
	"address": "D5",
	"description": "Une ancienne école de village transformée en restaurant. Derrière les fourneaux, Pascal Bardet - ancien d'Alain Ducasse pendant 18 ans - signe une savoureuse cuisine contemporaine qui met en valeur les produits du terroir, et particulièrement la truffe, dont il est un vrai spécialiste ! Terrasse sous les marronniers.",
	"image": "Gindreau.jpg",
	"date_register": "2017-01-13 01:10:54"
}
, {
	"id": "89",
	"name": "La Maison d'à Côté",
	"city": "Montlivault",
	"postal_code": "41350",
	"latitude": "",
	"longitude": "",
	"address": "17 rue de Chambord",
	"description": "Le chef, Christophe Hay, a repris en 2014 cette maison à l'atmosphère feutrée et contemporaine. Quelle réussite ! Tout y séduit : l'accueil chaleureux - l'équipe de cuisine n'hésite pas à venir en salle pour présenter les plats -, la générosité des assiettes, leur créativité tout en subtilité, la beauté des produits régionaux...",
	"image": "Maison.jpg",
	"date_register": "2017-01-13 01:27:27"
}
, {
	"id": "90",
	"name": "Loulou Côte Sauvage",
	"city": "Les Sables-d'Olonne",
	"postal_code": "85100",
	"latitude": "",
	"longitude": "",
	"address": "19 route bleue",
	"description": "Ce Loulou-là a accroché sa jolie maison aux rochers de la côte sauvage, face à la mer : la vue est imprenable ! Ici, les produits iodés - extrafrais - sont évidemment à l'honneur : homards tirés du vivier, poissons achetés directement à la criée des Sables... pour des plats savoureux et bien tournés.",
	"image": "Olonne.jpg",
	"date_register": "2017-01-13 01:29:37"
}
, {
	"id": "91",
	"name": "L'Almandin",
	"city": "Saint-Cyprien",
	"postal_code": "66750",
	"latitude": "",
	"longitude": "",
	"address": "Boulevard de l'Almandin",
	"description": "Au bord de la Méditerranée, dans un cadre contemporain, cette table joue l'inédit autour d'une cuisine qui prend les papilles par surprise avec de beaux mélanges sucré-salé. La sole juste snakée, crème de maïs et charlotte courgettes-ananas, en est un bon exemple... L'originalité au pouvoir !",
	"image": "Almandin.jpg",
	"date_register": "2017-01-13 01:39:33"
}
, {
	"id": "92",
	"name": "La Côte Saint-Jacques",
	"city": "Joigny",
	"postal_code": "89300",
	"latitude": "",
	"longitude": "",
	"address": "14 fg de Paris",
	"description": "D'une petite couturière audacieuse à son petit-fils globe-trotter, la Côte St-Jacques s'est imposée comme une institution de la gastronomie bourguignonne ! La noblesse des produits, la générosité des assiettes, le caractère intemporel de certaines recettes : une histoire culinaire écrite au fil de l'Yonne toute proche...",
	"image": "Jacques.jpg",
	"date_register": "2017-01-13 01:41:38"
}
, {
	"id": "93",
	"name": "L'Atelier du Parc",
	"city": "Paris",
	"postal_code": "75015",
	"latitude": "",
	"longitude": "",
	"address": "35 Boulevard Lefebvre",
	"description": "Voilà un établissement qui tranche avec les nombreuses brasseries traditionnelles de la porte de Versailles : bar en plexiglas changeant de couleur, teintes sobres et beaux sièges design qui donnent leur version d'un nouvel Art déco... Ce cadre chic et moderne sied parfaitement à la cuisine inventive et soignée d'un jeune chef plein d'allant. Les suggestions du jour sont annoncées de vive voix à la clientèle, et les plats de la carte sont renouvelés régulièrement. Saumon mi-fumé par nos soins, poutargue et sorbet granny smith ; épaule d'agneau confite 36 heures aux épices ; entremet noix de coco et pistache, sorbet griotte... Tout est fait maison ! Beaucoup de finesse, de la créativité et une belle surprise, juste en face au parc des expositions.",
	"image": "Parc.jpg",
	"date_register": "2017-01-13 01:43:37"
}
, {
	"id": "94",
	"name": "Mirazur",
	"city": "Menton",
	"postal_code": "6500",
	"latitude": "",
	"longitude": "",
	"address": "30 avenue Aristide-Briand",
	"description": "Un lieu d'exception ! C'est d'abord un bel écrin, perché sur la corniche, grand ouvert sur l'azur de la Méditerranée et du ciel... C'est surtout une table excellente, portée par un chef inspiré : l'Argentin Mauro Colagreco signe un hymne unique aux plantes aromatiques, aux fleurs, aux légumes de son potager, aux agrumes, etc. Les saisons, la région sont illuminées.",
	"image": "Mirazur.jpg",
	"date_register": "2017-01-13 01:45:13"
}
, {
	"id": "95",
	"name": "Maison Blanche",
	"city": "Paris",
	"postal_code": "75008",
	"latitude": "",
	"longitude": "",
	"address": "Avenue Montaigne",
	"description": "Un cadre grandiose ! Tel un cube posé sur le toit du théâtre des Champs-Élysées - un pont suspendu soutient cette étonnante Maison perchée -, la salle semble toiser la capitale à travers son immense baie vitrée... Quant à la terrasse, elle offre une vue tout simplement époustouflante sur la tour Eiffel. Si bien qu'on ne sait plus où poser le regard en entrant dans ce loft ultradesign ! Lové dans l'une des banquettes-alcôves ou installé sur la mezzanine, on ne se lasse pas du spectacle... Côté carte : une cuisine contemporaine bien réalisée, imprégnée d'influences méditerranéennes, et de l'âme voyageuse du chef. Avec une belle sélection de vins venus du Languedoc et de la vallée du Rhône... juste là-bas, derrière les toits de Paris.",
	"image": "Blanche.jpg",
	"date_register": "2017-01-13 01:46:26"
}
, {
	"id": "96",
	"name": "Le Jules Verne",
	"city": "Paris",
	"postal_code": "75007",
	"latitude": "",
	"longitude": "",
	"address": "2ème étage Tour Eiffel",
	"description": "Sans vous sentir obligé de gravir les 704 marches qui conduisent au 2e étage de la tour Eiffel, rendez-vous au pilier sud et laissez faire l'ascenseur privé qui mène directement au Jules Verne, à 125 m au-dessus du sol. Ce lieu emblématique dirigé par Alain Ducasse offre un cadre unique : le midi comme le soir, la vue sur Paris à travers les poutrelles métalliques de la tour est tout simplement spectaculaire ! Pensez à réserver très à l'avance (uniquement par Internet) votre table près des baies vitrées. Le décor contemporain signé Patrick Jouin (parois en nid-d'abeilles, fauteuils en cuir et fibre de carbone) est à la hauteur, de même que la cuisine classique revisitée façon Ducasse, réalisée ici par le chef Éric Azoug. Les pâtisseries sont quant à elles signées Christophe Devoille, pâtissier-chocolatier et glacier de formation. Enfin, la carte des vins, remarquable, compte plus de 400 références de l'Hexagone, dont quelques crus d'exception. Une adresse au sommet du patrimoine français !",
	"image": "5988_1.jpg",
	"date_register": "2017-02-23 15:59:41"
}
, {
	"id": "97",
	"name": "La Tour d'Argent",
	"city": "Paris",
	"postal_code": "75005",
	"latitude": "",
	"longitude": "",
	"address": "15 quai de la Tournelle",
	"description": "Une demeure historique liée depuis 1912 à la famille Terrail : André, le fondateur, son fils Claude, et à présent son petit-fils, André. Pour autant, la \"saga\" de la Tour d'Argent débuta bien avant. Déjà en 1582, l'enseigne signalait une élégante auberge, qui devint un restaurant en 1780. Mais la légende commence véritablement au début du 20e s. lorsque Terrail l'achète, avec cette idée de génie dans la tête : élever l'immeuble d'un étage pour y installer la salle à manger, et jouir ainsi d'un panorama unique sur la Seine et Notre-Dame. Le cadre cossu a conservé son lustre d'antan. Le service, parfaitement réglé, assure toujours le spectacle, dont le fameux rituel du canard de Challans au sang, inventé en 1890 par Frédéric Delair. L'emblème d'un classicisme indétrônable, mais nullement figé : véritable palimpseste, la carte conserve la mémoire de plusieurs décennies de haute gastronomie française - sans s'interdire des incursions vers la modernité. Quant à l'extraordinaire cave du sommelier David Ridgway, elle renfermerait... près de 500 000 bouteilles !",
	"image": "tourdargent.jpg",
	"date_register": "2017-02-23 15:59:45"
}
, {
	"id": "98",
	"name": "Relais Louis XIII",
	"city": "Paris",
	"postal_code": "75006",
	"latitude": "",
	"longitude": "",
	"address": "8 rue des Grands-Augustins",
	"description": "Une table chargée d'histoire, bâtie sur les caves de l'ancien couvent des Grands-Augustins : c'est ici que, le 14 mai 1610, une heure après l'assassinat de son père Henri IV, Louis XIII apprit qu'il devrait désormais régner sur la France... La salle à manger semble se souvenir de ces grandes heures du passé : colombages, pierres apparentes, boiseries, vitraux et tentures, tout distille un charme d'autrefois, avec çà et là des objets de collection (tableaux)... Une atmosphère toute particulière, donc, comme hors du temps, particulièrement propice à la découverte de la cuisine du chef, Manuel Martinez, tenante d'un noble classicisme culinaire. Après un joli parcours chez Ledoyen, au Crillon, à la Tour d'Argent, ce Meilleur Ouvrier de France a décidé de s'installer en ce Relais pour y perpétuer la tradition. Quoi de plus logique ? L'histoire continue donc et les habitués sont nombreux, plébiscitant notamment la formule déjeuner, d'un excellent rapport qualité-prix !",
	"image": "louis13.jpg",
	"date_register": "2017-02-23 15:59:46"
}
, {
	"id": "99",
	"name": "Saturne",
	"city": "Paris",
	"postal_code": "75002",
	"latitude": "",
	"longitude": "",
	"address": "17 rue N.-D.-des-Victoires",
	"description": "Saturne : dieu de l'agriculture et anagramme de \"natures\"... Une bien jolie enseigne, qui dit tout : le chef, Sven Chartier, formé auprès d'Alain Passard à l'Arpège (7e arrondissement), et son associé, Ewen Le Moigne, sommelier de son état, partagent l'amour du bon produit. Vins naturels, petits producteurs, respect des saisons : Saturne compile tout cela, et bien plus encore ! Huître et maquereau au jus de maïs acidulé ; merlan de ligne, moules, fenouil et eau de tomate ; agneau à l'artichaut, citronnelle, compote d'oignons et mozzarella fumée... Les assiettes sont pleines de saveurs, les accords mets-vins harmonieux... Quant à l'atmosphère, résolument moderne, elle affirme fièrement ses influences scandinaves (mobilier en bois blond, béton ciré). Oui, on peut faire branché et savoureux !",
	"image": "saturne.jpg",
	"date_register": "2017-02-23 15:59:47"
}
, {
	"id": "100",
	"name": "Le Bouche à Oreille",
	"city": "Boutervilliers",
	"postal_code": "91150",
	"latitude": "",
	"longitude": "",
	"address": "11 rue de la Chapelle",
	"description": "Un intérieur moderne, dont les murs portent de beaux épis de blé en hommage à la campagne environnante... Mais surtout, les assiettes d'Aymeric Dreux, qui portent la gourmandise à une autre dimension : précises et maîtrisées, elles mettent en valeur de beaux produits dans toute la force de leur goût.",
	"image": "bouche.jpg",
	"date_register": "2017-02-23 15:59:47"
}
, {
	"id": "101",
	"name": "Loulou Côte Sauvage",
	"city": "Les Sables-d'Olonne",
	"postal_code": "85100",
	"latitude": "",
	"longitude": "",
	"address": "19 route bleue",
	"description": "Ce Loulou-là a accroché sa jolie maison aux rochers de la côte sauvage, face à la mer : la vue est imprenable ! Ici, les produits iodés - extrafrais - sont évidemment à l'honneur : homards tirés du vivier, poissons achetés directement à la criée des Sables... pour des plats savoureux et bien tournés.",
	"image": "loulou.jpg",
	"date_register": "2017-03-05 18:55:24"
}
, {
	"id": "102",
	"name": "Le Sénéchal",
	"city": "Sauveterre-de-Rouergue",
	"postal_code": "12800",
	"latitude": "",
	"longitude": "",
	"address": "Sauveterre de Rouergue",
	"description": "En vous accueillant au Sénéchal, je voudrais vous faire partager ma sensibilité, ma personnalité, mon attachement aux produits et aux producteurs, à la nature et aux saisons, à mon village. Ne m’en voulez pas si quelques fois au détour d’un menu il m’arrive de changer l’ordre établi ou une partie de la recette, c’est un peu ma nature... Ma cuisine est comme Sauveterre, un refuge où authenticité, humilité, émotions et simplicité sont les principaux ingrédients.",
	"image": "lesenegale.jpg",
	"date_register": "2017-03-05 18:55:31"
}
, {
	"id": "103",
	"name": "Auberge des Deux Magots",
	"city": "La Roche-Bernard",
	"postal_code": "56130",
	"latitude": "",
	"longitude": "",
	"address": "1 Place du Bouffay",
	"description": "Natif du centre Bretagne,je mets un point d'honneur à travailler des produits frais et issus de producteurs locaux.",
	"image": "auberge.jpg",
	"date_register": "2017-03-05 18:55:38"
}
, {
	"id": "104",
	"name": "Le Bréard",
	"city": "Honfleur",
	"postal_code": "14600",
	"latitude": "",
	"longitude": "",
	"address": "7 rue du Puits",
	"description": "Cadre contemporain et cuisine subtile au menu de ce restaurant, situé dans une ruelle pavée proche de l'église Ste-Catherine. Le chef associe de belles saveurs avec créativité : en témoigne ce cabillaud cuit à basse température, accompagné d'un risotto au combava... Beaucoup de fraîcheur et de générosité !",
	"image": "lebreard.jpg",
	"date_register": "2017-03-05 18:55:48"
}
, {
	"id": "105",
	"name": "Auberge du Bon Laboureur",
	"city": "Chenonceaux",
	"postal_code": "37150",
	"latitude": "",
	"longitude": "",
	"address": "6 rue Dr Bretonneau",
	"description": "Je privilégie la véritable cuisine traditionnelle française revisitée au goût du jour.",
	"image": "aubergedubonlaboureur.jpg",
	"date_register": "2017-03-05 18:56:29"
}
, {
	"id": "106",
	"name": "Maison Decoret",
	"city": "Vichy",
	"postal_code": "3200",
	"latitude": "",
	"longitude": "",
	"address": "15 rue du Parc",
	"description": "Une bâtisse du 19es., une grande véranda cubique jouant sur la transparence : tel est le décor voulu par Jacques Decoret. Recherche esthétique et finesse sont au rendez-vous dans l'assiette, autour de très beaux produits. Et quelques chambres style maison d'hôtes rappelle l'esprit contemporain du lieu.",
	"image": "maisondecoret.jpg",
	"date_register": "2017-03-05 18:55:55"
}
, {
	"id": "107",
	"name": "Monsieur Jean",
	"city": "Lille",
	"postal_code": "59000",
	"latitude": "",
	"longitude": "",
	"address": "12 rue de Paris",
	"description": "Façade flamande, magnifique escalier, mur en brique orné de sculptures en pierre : une demeure au puissant charme du Nord... C'est l'adresse lilloise de Marc Meurin (doublement étoilé à Busnes), dans laquelle on savoure de belles recettes actuelles, travaillées avec soin et joliment présentées. Très recommandable !",
	"image": "monsieurjean.jpg",
	"date_register": "2017-03-05 18:56:00"
}
, {
	"id": "108",
	"name": "Paul Bocuse",
	"city": "Collonges-au-Mont-d'Or",
	"postal_code": "69660",
	"latitude": "",
	"longitude": "",
	"address": "40 Rue de la Plage",
	"description": "Temple de la grande cuisine, institution du service à l'ancienne... Le restaurant de Paul Bocuse est un véritable monument. Classique parmi les classiques, chaque assiette incarne l'une des plus belles pages de la gastronomie française. Le grand chef est entré dans l'Histoire : quel meilleur hommage que ces trois étoiles portées depuis 1965 !",
	"image": "paulbocuse.jpg",
	"date_register": "2017-03-05 18:56:04"
}
, {
	"id": "109",
	"name": "L'Ortensia",
	"city": "Saint-Gervais-sur-Mare",
	"postal_code": "34610",
	"latitude": "",
	"longitude": "",
	"address": "2 rue du château",
	"description": "Lui manque-t-il un \"h\" ? Non : c'est ainsi que l'on orthographie cette plante en occitan ! Créé dans une ancienne pépinière, le restaurant séduit grâce à une cuisine inventive qui met à l'honneur les viandes et légumes issus des fermes environnantes. L'accueil est fort chaleureux : décidément, une fleur très séduisante !",
	"image": "lortensia.jpg",
	"date_register": "2017-03-05 18:56:09"
}
, {
	"id": "110",
	"name": "La Table de Patrick Raingeard",
	"city": "Èze-Bord-de-Mer",
	"postal_code": "6360",
	"latitude": "",
	"longitude": "",
	"address": "1312 avenue Raymond-Poincaré",
	"description": "Dans le cadre luxueux de l'hôtel Cap Estel, cerné par la mer, Patrick Raingeard rend un bel hommage à la Méditerranée et ses rives : la qualité des produits, l'exécution soignée, la pointe d'inventivité qui rehausse l'ensemble, tout invite à un repas privilégié...",
	"image": "latabledepatrickraingeard.jpg",
	"date_register": "2017-03-05 18:56:13"
}
, {
	"id": "111",
	"name": "Fanny Rey et Jonathan Wahid",
	"city": "Saint-Rémy-de-Provence",
	"postal_code": "13210",
	"latitude": "",
	"longitude": "",
	"address": "12 Boulevard Mirabeau",
	"description": "Fanny Rey, finaliste de Top Chef 2011, est aux fourneaux de cette vénérable Auberge et décline une savoureuse cuisine du marché, mettant superbement en valeur les produits des Alpilles. À ses côtés, on trouve nul autre que... Jonathan Wahid, son compagnon, pâtissier émérite et ancien champion de France du dessert. Un duo de choc !",
	"image": "fannyreyetjonathanwahid.jpg",
	"date_register": "2017-03-05 18:56:18"
}
, {
	"id": "112",
	"name": "Le Diapason",
	"city": "Avignon",
	"postal_code": "84000",
	"latitude": "",
	"longitude": "",
	"address": "1764 avenue du Moulin-Notre-Dame - BX",
	"description": "Mon amour de la Cuisine Moderne et Gastronomique Traditionnel donne le ton au Restaurant le Diapason. J'aime valoriser les richesses de notre Vallis Clausa (Vaucluse), véritable potager de la France et ainsi mettre en avant nos producteurs locaux. Réussir à sublimer les produits de saison, telle est la philosophie de ma cuisine.",
	"image": "lediapason.jpg",
	"date_register": "2017-03-05 18:56:22"
}
, {
	"id": "113",
	"name": "L'Atelier de Marc Meurin",
	"city": "Lens",
	"postal_code": "62300",
	"latitude": "",
	"longitude": "",
	"address": "97 Rue Paul Bert",
	"description": "Étonnant, le bâtiment dessine un cercle tout en verre : son architecture se marie parfaitement au Louvre-Lens voisin ! Loin d'être un simple restaurant de musée, cet Atelier confié aux bons soins de Marc Meurin, fameux chef étoilé de Busnes, met à l'honneur les produits de la région. Tout indiqué en cas de visite...",
	"image": "atelier_marc_meudin.jpg",
	"date_register": "2017-03-07 00:43:41"
}
, {
	"id": "114",
	"name": "Le Relais Bernard Loiseau",
	"city": "Saulieu",
	"postal_code": "21210",
	"latitude": "",
	"longitude": "",
	"address": "2 rue d'Argentine",
	"description": "L'élégant cadre bourguignon, ouvert sur le jardin, est toujours aussi séduisant. La carte offre le choix entre les \"classiques de Bernard Loiseau\" et des propositions plus actuelles, imaginées par le chef Patrick Bertron. Quant au service, aimable et efficace, il ajoute encore au plaisir du repas !",
	"image": "relais_bernard_loiseau.jpg",
	"date_register": "2017-03-07 00:43:58"
}
, {
	"id": "115",
	"name": "William Frachot",
	"city": "Dijon",
	"postal_code": "21000",
	"latitude": "",
	"longitude": "",
	"address": "5 rue Michelet",
	"description": "Un décor contemporain qui puise aux sources de la nature, très minéral et très végétal, orné notamment de troncs d'arbre... Un bel écrin pour la cuisine de William Frachot, éprise d'essentiel, inspirée, voyageuse et aboutie. Écorce des saveurs, saveurs corsées !",
	"image": "william_frachot.jpg",
	"date_register": "2017-03-07 00:44:09"
}
, {
	"id": "116",
	"name": "Le Millénaire",
	"city": "Reims",
	"postal_code": "51000",
	"latitude": "",
	"longitude": "",
	"address": "4 rue Bertin",
	"description": "Non loin de la place Royale, une table d'une prestance toute contemporaine, associant tons crème, chêne clair et lignes élégantes. Une véritable invitation à découvrir cette cuisine réalisée à quatre mains (père et fils), bien ancrée dans le siècle... et dans le Millénaire !",
	"image": "millenaire.jpg",
	"date_register": "2017-03-07 00:44:15"
}
, {
	"id": "117",
	"name": "La Poule Noire",
	"city": "Marseille",
	"postal_code": "13001",
	"latitude": "",
	"longitude": "",
	"address": "61 Rue Sainte",
	"description": "La Poule noire se mérite ! Dissimulée derrière une étroite entrée, ce restaurant, fréquenté par les habitués, joue la fraîcheur et la nouveauté (le menu du jour change quotidiennement). La surprise des propriétaires, Sophie et Frank ? Une élégante mini-terrasse de douze places, habillée de bois clair.",
	"image": "poule_noire.jpg",
	"date_register": "2017-03-07 00:44:20"
}
, {
	"id": "118",
	"name": "Jacques Faussat",
	"city": "Paris",
	"postal_code": "75017",
	"latitude": "",
	"longitude": "",
	"address": "54 rue Cardinet",
	"description": "Un petit bout de province à Paris, cela paraît impossible. C'est pourtant la gageure que relève le chef de ce restaurant du quartier des Ternes, gersois et fier de l'être. Jacques Faussat n'aime rien tant que la simplicité inspirée de ses racines et de son enfance. Une simplicité également apprise auprès de Michel Guérard et surtout d'Alain Dutournier - sa rencontre avec cet homme de passion qui partage les mêmes origines sera déterminante dans sa carrière, à commencer par dix années passées aux fourneaux du Trou Gascon. Avec quelques réminiscences du Sud-Ouest, sa cuisine joue donc surtout la carte de la générosité et des saveurs, misant tout sur de bons produits travaillés pour en faire ressortir... le meilleur. Un bon rapport qualité-prix.",
	"image": "jacques_faussat.jpg",
	"date_register": "2017-03-07 00:44:26"
}
, {
	"id": "119",
	"name": "Auberge du Vieux Puits",
	"city": "Fontjoncouse",
	"postal_code": "11360",
	"latitude": "",
	"longitude": "",
	"address": "5 Avenue Saint-Victor",
	"description": "Le produit est la star de cette cuisine ludique et inspirée, qui porte certaines émotions gustatives à l'incandescence. Saisons, terroir, invention : Gilles Goujon excelle dans l'équilibre des saveurs et la maîtrise des techniques culinaires ; il s'est, en outre, entouré d'une équipe efficace et proche du client.",
	"image": "vieux_puits.jpg",
	"date_register": "2017-03-07 00:47:31"
}
, {
	"id": "120",
	"name": "La Table du Lancaster",
	"city": "Paris",
	"postal_code": "75008",
	"latitude": "",
	"longitude": "",
	"address": "7 rue de Berri",
	"description": "Toute l'atmosphère exclusive et confidentielle d'un restaurant de grand hôtel - et quand il s'agit du Lancaster, ce mythique établissement au charme si particulier... Le chef signe dans ce cadre une cuisine étonnante, tout en présentations soignées et en jeux de textures, concoctée avec la complicité de beaux produits. Ses assiettes révèlent une large palette d'expression, mettant aussi bien en valeur les terroirs, les marées que les influences lointaines. Ou comment revisiter la gastronomie française tout en redessinant une géographie des saveurs ! Dernier conseil : aux beaux jours, n'hésitez pas à profiter de la terrasse aménagée dans la cour-jardin, à l'abri des regards.",
	"image": "lancaster.jpg",
	"date_register": "2017-03-07 00:49:30"
}
, {
	"id": "121",
	"name": "Porte Guillaume",
	"city": "Dijon",
	"postal_code": "21000",
	"latitude": "",
	"longitude": "",
	"address": "2 Rue de la Liberté",
	"description": "Une table de tradition chaleureuse et accueillante. Au menu, donc : oeufs en meurette, coq au vin, poire pochée à la vanille... L'adresse abrite également un caveau voûté en guise de bar à vins, qui ravira les amateurs de bourgogne.",
	"image": "porte_guillaume.jpg",
	"date_register": "2017-03-07 00:53:30"
}
, {
	"id": "122",
	"name": "Shang Palace",
	"city": "Paris",
	"postal_code": "75016",
	"latitude": "",
	"longitude": "",
	"address": "10 Avenue d'Iéna",
	"description": "Shangri-La... Le nom résonne comme un voyage aux confins de l'Asie, vers un paradis luxueux et imaginaire. Le célèbre hôtel parisien, né en 2010, a su donner le même éclat à ses restaurants, dont ce Shang Palace. Situé au niveau inférieur de l'établissement, il transporte ses hôtes dans un Hong Kong merveilleux, entre raffinement extrême-oriental et élégance Art déco. Colonnes incrustées de jade, paravents sculptés et lustres en cristal promettent un dîner aussi feutré qu'étincelant. La cuisine cantonaise est à l'honneur ; on peut partager en toute convivialité un assortiment de plats servis au centre de la table. Les cuissons se révèlent précises, les parfums subtils. Les dim sum sont moelleux à souhait et le goût de la sole cuite à la vapeur s'envole accompagné de champignons noirs et de tofu soyeux. Pour finir, entre autres douceurs, une crème de mangue, garnie de pomélo et de perles de sagou, laisse une belle impression de fraîcheur...",
	"image": "shang_palace.jpg",
	"date_register": "2017-03-07 01:04:07"
}
, {
	"id": "123",
	"name": "La Baratte",
	"city": "Tourcoing",
	"postal_code": "59200",
	"latitude": "",
	"longitude": "",
	"address": "395 rue du Clinquet",
	"description": "Une petite maison en briques dans un quartier résidentiel de Tourcoing. Surprise à l'intérieur : on découvre une salle résolument contemporaine et élégante, avec une agréable vue sur le jardin et sa terrasse en teck. Côté cuisine, le chef fait montre d'inventivité... pour le bonheur du produit frais !",
	"image": "baratte.jpg",
	"date_register": "2017-03-07 01:03:52"
}
, {
	"id": "124",
	"name": "Le Clos St-Basile",
	"city": "Mougins",
	"postal_code": "6250",
	"latitude": "",
	"longitude": "",
	"address": "351 avenue St-Basile",
	"description": "Nouveau départ en 2014 pour ce restaurant, avec l'arrivée d'un couple aussi professionnel que dynamique. Le chef excelle dans la confection d'une cuisine du marché savoureuse et inventive ; la patronne, sommelière, a d'excellents vins à vous conseiller. Enfin, la belle terrasse est idéale pour les beaux jours !",
	"image": "stbasile.jpg",
	"date_register": "2017-03-07 01:09:33"
}
, {
	"id": "125",
	"name": "Meurin",
	"city": "Busnes",
	"postal_code": "62350",
	"latitude": "",
	"longitude": "",
	"address": "1098 Rue de Lillers",
	"description": "Moment de haute gastronomie dans le décor chic et feutré du Château de Beaulieu... Marc Meurin signe une cuisine d'excellente facture, fine et inventive. Bouillons, jus, produits, accords de saveurs, etc. Chaque assiette est un plaisir.",
	"image": "meurin.jpg",
	"date_register": "2017-03-07 01:13:00"
}
, {
	"id": "126",
	"name": "La Table des Merville",
	"city": "Castanet-Tolosan",
	"postal_code": "31320",
	"latitude": "",
	"longitude": "",
	"address": "3 place Richard",
	"description": "Une extension tout en verre sur une jolie place avec terrasse, des cuisines ouvertes sur la salle donnant l'impression que le chef travaille parmi les clients : Claudie et Thierry Merville ont su créer un lieu original... Et les assiettes, aussi joliment contemporaines et soignées, dégagent ce même parfum de \"Mervilleux\" !",
	"image": "merville.jpg",
	"date_register": "2017-03-07 01:15:32"
}
, {
	"id": "127",
	"name": "Le 39V",
	"city": "Paris",
	"postal_code": "75008",
	"latitude": "",
	"longitude": "",
	"address": "39 Avenue George V",
	"description": "La température monte au 39... de l'avenue George-V ! Franchissez donc le porche de ce discret immeuble haussmannien : de là, un ascenseur vous mène directement au 6e étage. Dans les hauteurs, sur les toits de Paris, niche cette petite cité pour gastronomes... D'abord le bar, habillé de noir, où l'on peut siroter quelque cocktail avant de rejoindre sa table. Puis la grande salle, coiffée de verre et dont les larges baies ouvrent sur une délicieuse petite terrasse. Les lieux sont raffinés ; l'assiette n'est pas en reste. Le chef, Frédéric Vardon, propose une belle relecture de la cuisine de tradition. Très attaché à la qualité des ingrédients, il met un point d'honneur à rendre visite à ses fournisseurs sur leur domaine de production. Un travail aux origines et une véritable clef de voûte pour des assiettes raffinées et démontrant de solides bases classiques. On s'enfièvre pour ce 39V plein de saveurs !",
	"image": "39v.jpg",
	"date_register": "2017-03-07 01:17:35"
}
, {
	"id": "128",
	"name": "Le Pré Catelan",
	"city": "Paris",
	"postal_code": "75016",
	"latitude": "",
	"longitude": "",
	"address": "Route de la Grande Cascade",
	"description": "Une enclave enchantée au coeur du bois de Boulogne, tel est Le Pré Catelan. Somptueux et chargé d'histoire, le lieu dévoile un décor de jardins et d'architectures classiques. Pierre-Yves Rochon a révolutionné l'esprit du pavillon Napoléon III en le parant d'un mobilier design et de tons vert, blanc et argent, tandis que l'orangerie attenante livre un cadre contemporain à la verdure qui l'entoure... C'est dans ce cadre rêvé que l'on peut déguster depuis quelques années la cuisine savoureuse et inventive de Frédéric Anton. Ce Meilleur Ouvrier de France révèle son talent à travers une carte alliant équilibre, harmonie et générosité. Pour chaque assiette, il recherche la perfection, soignant jusqu'à la composition graphique. La précision et la rigueur transmises par ses mentors (dont Robuchon) sont sa signature, ainsi que son goût pour les associations inédites et la vraie nature des produits. Le tout sublimé par une cave prestigieuse et un accueil irréprochable. Autant d'arguments en faveur de cette noble maison aux murs d'argent et... aux plats d'or.",
	"image": "pre_catelan.jpg",
	"date_register": "2017-03-07 01:20:09"
}
, {
	"id": "129",
	"name": "Le Fanal",
	"city": "Banyuls-sur-Mer",
	"postal_code": "66650",
	"latitude": "",
	"longitude": "",
	"address": "17 Avenue du Fontaulé",
	"description": "Juste devant le port de Banyuls, laissez-vous guider par les lumières de ce Fanal ! Pascal Borrell y signe des recettes créatives et épurées, pleines de relief, qui s'appuyent sur des produits de première fraîcheur : le matin, les poissons sont livrés encore vivants en cuisine... À découvrir d'urgence.",
	"image": "fanal.jpg",
	"date_register": "2017-03-07 01:22:29"
}
, {
	"id": "130",
	"name": "MaSa",
	"city": "Boulogne-Billancourt",
	"postal_code": "92100",
	"latitude": "",
	"longitude": "",
	"address": "112 avenue Victor-Hugo",
	"description": "Ne soyez pas surpris en vous asseyant : ici, il n'y a pas de carte, et les menus n'indiquent pas les plats... Mais si on vous laisse dans l'expectative, c'est pour mieux vous séduire ensuite ! Avec de très beaux produits (oeuf de Marans, boeuf de Coutancie, canette de Challans) et au gré des arrivages quotidiens, le chef réalise une cuisine ludique et inspirée, n'hésitant pas à jouer la carte de la surprise au détour d'une recette. Les préparations sont légères et bien équilibrées ; on les accompagne d'une jolie sélection de vins au verre. Un mot enfin sur le décor contemporain, repensé dans des tons noir et blanc, et sur l'agréable terrasse arborée, à l'arrière, au calme.",
	"image": "masa.jpg",
	"date_register": "2017-03-07 01:24:11"
}
, {
	"id": "131",
	"name": "Le Restaurant",
	"city": "Paris",
	"postal_code": "75006",
	"latitude": "",
	"longitude": "",
	"address": "13 rue des Beaux-Arts",
	"description": "Le Restaurant de l'Hôtel n'a rien d'une table gastronomique conventionnelle. Il doit son atmosphère baroque, anachronique et éclectique au designer Jacques Garcia, adepte du style Empire revisité. Dans un esprit salon privé, le décor rivalise de drapés, banquettes et fauteuils bas, alcôves, moulures dorées et tons fauves, tel un tableau d'Ingres dans sa période orientaliste. Un peu trop chargé pour certains, dépaysant pour d'autres, en tout cas original ! Le tout agrémenté d'une ravissante cour intérieure où la terrasse et la fontaine font oublier que l'on se trouve au coeur de Paris. Pour satisfaire les exigences de sa clientèle de \"happy few\" - people et stars sensibles à son intimité et à ses hôtes illustres (Oscar Wilde, Borges, etc.) -, il fallait tout le savoir-faire d'un jeune chef au beau parcours. Autrefois second et seul aux commandes depuis 2011, ce dernier travaille d'excellents produits et aime revisiter les classiques de la gastronomie française ; son épouse Johanna, chef-pâtissière, se charge avec brio de la conclusion des repas. Un duo gagnant !",
	"image": "LE_restaurant.jpg",
	"date_register": "2017-03-07 01:26:18"
}
, {
	"id": "132",
	"name": "Le Domaine du Colombier",
	"city": "Malataverne",
	"postal_code": "26780",
	"latitude": "",
	"longitude": "",
	"address": "270 Chemin de Malombre",
	"description": "Sur les ruines d'un hermitage monastique, on aime s'installer dans les salles en enfilade - voûtées, à la décoration soignée - et sur l'apaisante terrasse de ce restaurant. La cuisine, fine et ancrée dans son époque, révèle des cuissons millimétrées et une technique solide : nos papilles sont ravies !",
	"image": "domaine_colombier.jpg",
	"date_register": "2017-03-07 01:29:55"
}
, {
	"id": "133",
	"name": "Domaine des Séquoias",
	"city": "Ruy",
	"postal_code": "38300",
	"latitude": "",
	"longitude": "",
	"address": "54 Vie-de-Boussieu",
	"description": "On passe un agréable moment au sein de cette belle maison de maître, d'une élégance toute classique, où de grandes toiles contemporaines projettent leurs couleurs à travers la pièce. Le repas se décline au fil de mets très savoureux et originaux, guidés par le souci du bon produit. Autre atout : l'accueil est charmant.",
	"image": "domaine_sequoias.jpg",
	"date_register": "2017-03-07 01:32:29"
}
, {
	"id": "134",
	"name": "Graindorge",
	"city": "Paris",
	"postal_code": "75017",
	"latitude": "",
	"longitude": "",
	"address": "15 rue de l'arc de triomphe",
	"description": "Le climat de l'Étoile réussit plutôt bien à Bernard Broux, sans doute parce qu'il a su adapter au goût parisien ce qui fait le charme des auberges de son \"Ch'Nord\" natal ! Dans la salle d'esprit Art déco, on s'attable volontiers devant un potjevlesch, des bintjes farcies à la brandade de morue, un waterzoï de la mer aux crevettes grises d'Ostende ou encore l'incontournable lièvre à la flamande pendant la saison de la chasse... De généreuses recettes flamandes, donc, complétées de suggestions du marché. Le tout se déguste avec de belles bières artisanales d'outre-Quiévrain (Angélus, Moinette Blonde), mais que les amateurs de vin se rassurent, ils trouveront aussi leur bonheur !",
	"image": "graindorge.jpg",
	"date_register": "2017-03-07 01:33:52"
}
, {
	"id": "135",
	"name": "Le Taillevent",
	"city": "Paris",
	"postal_code": "75008",
	"latitude": "",
	"longitude": "",
	"address": "15 Rue Lamennais",
	"description": "Cette adresse qu'on ne présente plus porte fièrement les couleurs de la tradition. Par ses propriétaires, en premier lieu : la famille Vrinat qui, depuis trois générations, a fait la réputation de ce restaurant incontournable et est désormais associée à la famille Gardinier (Les Crayères à Reims). Par son nom : référence à l'auteur du \"Viandier\", le plus ancien manuscrit de recettes rédigé en français (vers 1379). Par son cadre, enfin : l'ancien hôtel particulier du duc de Morny (19e s.), classique, feutré et propice aux rendez-vous politiques et aux repas d'affaires. L'éclairage tamisé et l'harmonie de tons bruns, rouges et beiges favorisent un climat d'intimité, enrichi depuis 2004 par des oeuvres d'art contemporain. Une façon d'entretenir des liens avec l'air du temps. Comme en cuisine, où le sixième chef de la maison, Alain Solivérès, mêle l'ancien au moderne, les recettes empruntées à la haute gastronomie à des touches méditerranéennes et actuelles. Et, cerise sur le gâteau : les caves, pléthoriques en vins rares, qui comptent parmi les plus belles de la capitale.",
	"image": "Taillevent.jpg",
	"date_register": "2017-03-07 01:35:16"
}
, {
	"id": "136",
	"name": "Le Chiberta",
	"city": "Paris",
	"postal_code": "75008",
	"latitude": "",
	"longitude": "",
	"address": "3 Rue Arsène Houssaye",
	"description": "Le Chiberta version Guy Savoy s'est choisi le noir comme couleur, le vin comme symbole et l'inventivité comme fil conducteur. En entrant, on est plongé dans un autre univers, tamisé, calme et feutré. Parfait pour les repas d'affaires comme pour les rencontres plus intimes. L'aménagement intérieur, conçu par l'architecte Jean-Michel Wilmotte, surprend par son minimalisme radical, tout en chic discret et design. La grande originalité du lieu reste indéniablement la \"cave à vins verticale\" : de grands crus habillant les murs à la manière d'une bibliothèque ou d'oeuvres d'art. Entre deux alignements de bouteilles, des tableaux modernes et abstraits colorent ponctuellement l'espace. Confortablement installé à table, on apprécie toute l'étendue de la cuisine, supervisée par le \"patron\", qui revisite joliment la tradition. Bon à savoir : le menu du marché est revu chaque semaine, une carte d'huîtres est disponible au comptoir, et la cave, évidemment, est parfaitement composée.",
	"image": "chiberta.jpg",
	"date_register": "2017-03-07 01:36:24"
}
, {
	"id": "137",
	"name": "Restaurant du Palais Royal",
	"city": "Paris",
	"postal_code": "75001",
	"latitude": "",
	"longitude": "",
	"address": "110 Galerie de Valois",
	"description": "C'est dans le cadre idyllique des jardins du Palais Royal, à deux pas du ministère de la Culture, qu'on trouve cet élégant restaurant qui ne cache pas ses ambitions gastronomiques. Aux fourneaux officie le jeune chef grec Philip Chronopoulos, qui fut notamment chef exécutif de l'Atelier de Joël Robuchon-Étoile. Avec de superbes produits, il signe ici une cuisine créative, percutante, se fendant de recettes d'une vivifiante maturité - en témoignent ces langoustines justes saisies, girolles et amandes fraîches. On se délecte de ces douceurs dans un cadre contemporain au luxe discret (assiettes en porcelaine, couverts Christofle), qui est un régal pour les yeux. L'été, la terrasse sous les arcades offre à vos agapes un décor à la hauteur de l'assiette. Avis aux amateurs : les petits clafoutis maison aux fruits de saison, offerts avant le café, sont un délice... Royal, c'est le mot !",
	"image": "palais_royal.jpg",
	"date_register": "2017-03-07 01:40:24"
}
, {
	"id": "138",
	"name": "Cyril Attrazic",
	"city": "Aumont-Aubrac",
	"postal_code": "48130",
	"latitude": "",
	"longitude": "",
	"address": "10 route du Languedoc",
	"description": "Un restaurant élégant et bien dans son époque... pour un chef inspiré. Cyril Attrazic signe une belle cuisine créative, franche et expressive, colorée et parfumée, avec de magnifiques produits locaux (telles les viandes de son beau-père). Quant au décor, chic et chaleureux, il ne manque pas de séduire. Vive l'Aubrac !",
	"image": "cyril_attrazic.jpg",
	"date_register": "2017-03-07 01:41:48"
}
, {
	"id": "139",
	"name": "Auberge de Cassagne",
	"city": "Avignon",
	"postal_code": "84130",
	"latitude": "",
	"longitude": "",
	"address": "450 Allée de Cassagne",
	"description": "Poutres, tomettes, cheminée... Dans la tradition de ces auberges bourgeoises dédiées aux plaisirs de la table, le classicisme est ici de mise, de même les produits nobles et certaines recettes plus rustiques. Dans la cave, 700 références privilégient la vallée du Rhône méridionale.",
	"image": "auberge_cassagne.jpg",
	"date_register": "2017-03-07 01:43:50"
}
, {
	"id": "140",
	"name": "La Tour",
	"city": "Espalion",
	"postal_code": "12500",
	"latitude": "",
	"longitude": "",
	"address": "3 Place Saint-Georges",
	"description": "Au rez-de-chaussée, traversez le bistrot pour atteindre l'escalier : le restaurant est à l'étage ! Là-haut, le chef réalise une cuisine volontiers créative, dans laquelle les saveurs sont toujours au rendez-vous. On se régale dans un cadre élégant et contemporain, propice à la gourmandise...",
	"image": "latour.jpg",
	"date_register": "2017-03-07 01:45:09"
}
],
"test": [
{
	"id": "1",
	"text": "greg"
}
, {
	"id": "2",
	"text": "greg"
}
]}
